[
  {
    "title": "artworxLA",
    "location": {
      "address": "1930 Wilshire Blvd #800",
      "city": "Los Angeles, CA 90057",
      "latitude": "34.0566",
      "longitude": "-118.2741"
    },
    "hours": {
      "opens": "9am",
      "closes": "6pm"
    },
    "phone": "3234651404",
    "image": "",
    "website": "artworxla.org",
    "verified": true
  },
  {
    "title": "Safe Place for Youth",
    "location": {
      "address": "2469 S Lincoln Blvd",
      "city": "Venice, CA 90291",
      "latitude": "33.9926",
      "longitude": "-118.4507"
    },
    "hours": {
      "opens": "9am",
      "closes": "5pm"
    },
    "phone": "3109022283",
    "image": "",
    "website": "safeplaceforyouth.org",
    "verified": true
  },
  {
    "title": "Sisu Media",
    "location": {
      "address": "6100 Wilshire Blvd #1111",
      "city": "Los Angeles, CA 90048",
      "latitude": "34.0626",
      "longitude": "-118.3618"
    },
    "hours": {
      "opens": "9am",
      "closes": "6:30pm"
    },
    "phone": "3102870290",
    "image": "sisu",
    "website": "sisumedia.com",
    "verified": false
  }
]
